City_id,Country,City_name,Latitude,Longitude,Temperature,Humidity,Clouding,Windspeed,Date
6356018,ES,Villanueva de la Serena,39.01,-5.73,75.0,48,0,5.01,1595727549
1905099,VN,Tinh Dien Bien,21.33,102.93,84.51,59,100,3.0,1595727549
3106515,ES,Vallirana,41.39,1.93,78.01,83,20,4.7,1595727549
6360928,ES,Turégano,41.14,-3.99,66.0,17,0,1.99,1595727550
4932757,US,Charlemont,42.63,-72.87,72.0,86,0,4.34,1595727550
4154336,US,Elfers,28.22,-82.72,77.0,88,94,11.1,1595727550
3066578,CZ,Rumburk,50.95,14.56,62.01,79,22,6.13,1595727550
2804158,DE,Zimmernsupra,50.98,10.87,68.0,56,100,9.17,1595727550
6540086,IT,Pizzo,38.74,16.17,68.0,94,48,5.82,1595727550
2679107,SE,Simrishamn,55.56,14.35,59.0,93,44,4.7,1595727550
3106528,ES,Vallfogona de Balaguer,41.75,0.81,75.0,13,49,5.37,1595727551
1501876,RU,Krasnyy Yar,57.13,84.53,60.01,89,100,3.85,1595727551
6358306,ES,Binaced,41.81,0.22,73.4,64,20,10.29,1595727551
2993728,FR,Mirecourt,48.30,6.13,68.0,64,100,4.7,1595727551
4928703,US,Acton,42.49,-71.43,77.0,69,1,4.7,1595727551
2998018,FR,Llupia,42.62,2.77,73.4,60,29,4.7,1595727551
3115195,ES,Olabe,42.88,-1.60,62.6,88,11,5.28,1595727552
2659800,CH,Magadino,46.15,8.86,64.4,77,75,3.58,1595727552
3096385,PL,Kcynia,52.99,17.49,64.0,82,18,3.36,1595727552
727069,BG,Slivnitsa,42.85,23.03,61.0,100,40,4.7,1595727552
4154031,US,East Naples,26.14,-81.77,82.4,83,1,5.7,1595727552
6552638,DE,Jesteburg,53.30,9.97,66.0,82,100,9.17,1595727552
6050696,CA,Laverlochère,47.43,-79.30,77.0,73,75,13.87,1595727552
6549650,DE,Dähre,52.80,10.90,64.0,72,100,1.01,1595727553
2267487,PT,Guia,39.95,-8.78,64.0,100,90,10.29,1595727553
3171297,IT,Pelago,43.77,11.50,72.0,77,60,3.36,1595727553
6545250,GB,Lambeth,51.50,-0.11,60.01,87,20,11.41,1595727344
2634777,GB,Ware,51.81,-0.03,55.0,95,1,8.43,1595727553
6153823,CA,Split Lake,56.25,-96.09,72.37,67,0,7.16,1595727553
2823887,DE,Taubenheim,51.05,14.48,62.01,85,26,6.62,1595727553
6539386,IT,Borriana,45.51,8.04,70.0,57,100,5.99,1595727554
7287488,CH,Visperterminen,46.24,7.94,64.4,68,99,5.82,1595727554
579492,RU,Balakovo,52.03,47.80,59.04,75,56,4.7,1595727554
6553077,DE,Kürten,51.04,7.25,66.99,93,100,4.7,1595727554
6535506,IT,Chiusano d'Asti,44.99,8.12,72.0,83,79,1.01,1595727554
3618410,NI,La Paz de Carazo,11.82,-86.13,80.6,78,40,6.93,1595727554
2832071,DE,Sillerup,54.68,9.22,62.01,100,100,11.41,1595727554
3024435,FR,Cognat-Lyonne,46.11,3.31,71.6,53,100,3.2,1595727555
3980198,MX,Villa Corona,20.42,-103.68,75.0,64,90,3.4,1595727555
672375,RO,Negreşti,46.83,27.43,72.0,56,100,3.36,1595727555
2512324,ES,Pozo de los Palos,37.65,-1.05,77.0,83,75,5.82,1595727555
725295,BG,Zlataritsa,43.05,25.90,68.0,82,24,2.24,1595727555
7872303,AT,Oberstorcha,46.96,15.80,57.99,93,30,1.12,1595727555
3671161,CO,Quebradanegra,5.12,-74.48,50.0,87,20,3.36,1595727555
2308278,GQ,Mbini,1.57,9.61,75.38,86,98,8.77,1595727555
5145374,US,Ada,40.77,-83.82,80.6,88,1,0.72,1595727556
1256117,IN,Sinor,21.92,73.33,78.8,94,40,3.36,1595727556
1791636,CN,Weinan,34.50,109.51,75.2,83,40,4.47,1595727542
6552635,DE,Harmstorf,53.35,9.98,66.0,82,100,9.17,1595727556
6551438,DE,Grinau,53.78,10.55,63.0,83,100,3.0,1595727556
2021879,RU,Koma,52.17,107.50,69.8,64,98,2.33,1595727556
7285651,CH,Diessenhofen,47.68,8.74,64.0,82,100,3.36,1595727556
8012406,PT,Louriçal,40.00,-8.75,64.0,100,90,10.29,1595727557
4366852,US,Rising Sun,39.70,-76.06,78.01,86,85,4.0,1595727264
1732070,PH,Aggugaddah,17.71,121.81,87.4,67,46,6.4,1595727557
283971,PS,Faqqū‘ah,32.49,35.40,65.86,97,0,2.93,1595727557
3165290,IT,Travesio,46.20,12.86,68.0,86,2,4.61,1595727557
5903881,CA,Bliss Landing,50.03,-124.82,77.0,46,20,5.82,1595727557
3109680,ES,Santa Susanna,41.63,2.72,75.0,86,1,4.0,1595727557
677201,RO,Gârda de Sus,46.45,22.82,55.8,86,96,2.39,1595727558
6554518,DE,Wilsecker,50.02,6.58,62.6,88,75,10.29,1595727558
1153386,TH,Hang Dong,18.69,98.92,89.01,70,20,1.12,1595727558
2892093,DE,Kauerheim,49.42,11.55,64.0,82,20,4.94,1595727558
1910138,CN,Macun,33.57,113.65,69.22,97,100,6.13,1595727558
4445170,US,Sardis,34.44,-89.92,80.6,88,1,4.94,1595727558
5989520,CA,Kashechewan,52.30,-81.62,67.91,89,100,12.75,1595727558
3129987,ES,Añorbe,42.66,-1.71,62.6,88,13,6.15,1595727558
3620163,NI,Dolores,11.86,-86.22,80.6,78,40,6.93,1595727559
7286537,CH,Monthey,46.24,6.92,64.4,68,100,5.82,1595727386
7616862,PH,Nibaliw East,15.81,120.48,87.21,67,66,5.26,1595727559
1279292,IN,Agarpāra,22.68,88.37,86.0,89,40,6.93,1595727559
766523,PL,Łęki Dolne,49.97,21.25,61.0,78,100,1.07,1595727559
3130310,ES,Almazul,41.57,-2.15,63.0,70,0,1.01,1595727559
491135,RU,Sokolyata,56.67,42.80,51.13,85,18,2.89,1595727559
6533997,ES,Santa Susanna,41.65,2.69,75.0,86,2,4.0,1595727560
3174784,IT,Levico Terme,46.01,11.31,64.99,83,99,2.19,1595727560
2963899,IE,Graney,52.90,-6.79,54.0,92,22,8.01,1595727560
3017637,FR,Foucherans,47.08,5.46,71.6,68,100,2.24,1595727560
1772148,MY,Juru,5.31,100.44,82.4,78,20,3.36,1595727560
5813063,US,Tanner,47.48,-121.75,75.99,53,0,4.5,1595727560
6455212,FR,Chamalières,45.78,3.07,71.6,53,100,3.56,1595727560
491019,RU,Sol'-Iletsk,51.16,54.99,60.89,76,11,5.95,1595727561
6440523,FR,Montory,43.10,-0.82,64.0,93,33,2.24,1595727561
6435078,FR,Saint-Romain-le-Noble,44.17,0.78,66.2,77,17,4.7,1595727561
2894023,DE,Kaiseringen,48.16,9.10,66.0,57,100,7.0,1595727561
3205658,DE,Herdwangen-Schönach,47.85,9.20,64.0,93,100,1.12,1595727561
3066743,CZ,Rotava,50.30,12.57,59.0,90,100,2.98,1595727561
2746607,NL,Gemeente Strijen,51.73,4.55,64.0,93,100,5.99,1595727561
6556820,DE,Neuenmarkt,50.10,11.60,61.0,87,100,5.12,1595727562
1189056,BD,Sakhipur,24.30,90.18,86.99,74,62,5.79,1595727562
7531180,PL,Skierniewice,51.96,20.17,60.01,79,10,5.23,1595727562
2660598,CH,Glâne District,46.67,6.92,64.99,77,75,2.24,1595727562
6547918,DE,Balow,53.27,11.72,66.0,92,100,3.0,1595727562
1795027,CN,Shiqiu,31.65,118.92,80.6,78,99,6.71,1595727562
2878282,DE,Leutewitz,51.05,13.68,66.0,72,97,9.17,1595727562
5927708,CA,Coral Harbour,64.13,-83.17,57.2,71,40,6.93,1595727563
2995055,FR,Maureilhan,43.35,3.12,73.0,82,43,5.82,1595727563
8012959,PT,Martinchel,39.52,-8.32,64.99,84,2,1.01,1595727563
3122826,ES,Esplugues de Llobregat,41.38,2.09,78.01,83,20,4.7,1595727563
5143419,US,Watkins Glen,42.38,-76.87,78.8,61,1,1.01,1595727563
2562617,MT,Paola,35.87,14.50,77.0,78,0,9.17,1595727563
628281,BY,Gomel Oblast,52.00,30.00,61.45,98,100,6.64,1595727563
5307778,US,Page,36.91,-111.46,89.6,22,1,14.99,1595727499
7872550,AT,Telfes im Stubai,47.17,11.33,57.2,82,92,1.12,1595727564
3602936,HN,Quiscamote,14.48,-87.98,73.4,100,75,2.15,1595727564
4736933,US,Timpson,31.90,-94.40,77.0,95,0,4.7,1595727564
1162572,PK,Chak Five Hundred Seventy-five,31.55,73.83,84.2,79,40,6.93,1595727564
772698,PL,Dzierzążnia,52.63,20.23,57.0,87,64,3.36,1595727564
2661681,CH,Augst,47.54,7.71,68.0,64,100,4.7,1595727564
1714442,PH,Don Carlos,7.72,124.97,84.34,67,17,2.82,1595727564
3078997,CZ,Bořetice,48.91,16.85,60.8,87,0,4.7,1595727565
2960506,LU,Grumelscheid,49.98,5.87,63.0,68,100,1.01,1595727565
5386073,US,Rancho Santa Fe,33.02,-117.20,77.0,64,1,6.93,1595727565
2975973,FR,Sarraziet,43.70,-0.49,66.2,82,90,3.36,1595727565
1861835,JP,Iizuka,33.63,130.68,78.01,88,75,6.93,1595727565
6693626,GB,Eight Ash Green,51.90,0.82,62.01,93,0,1.01,1595727565
673332,RO,Milaş,46.82,24.43,62.6,93,72,3.36,1595727565
3014217,FR,Guinot,44.51,0.38,64.0,88,51,4.47,1595727566
5323012,US,Alessandro,33.89,-117.27,86.0,35,1,13.87,1595727408
2867723,DE,Müncheberg,52.50,14.13,69.01,55,24,1.99,1595727566
4734005,US,Stafford,29.62,-95.56,77.0,100,1,4.7,1595727340
1689989,PH,San Francisco,13.78,122.30,90.63,57,89,2.89,1595727566
3100429,PL,Długomiłowice,50.28,18.15,64.99,98,13,1.99,1595727566
2350813,NG,Akwa Ibom State,5.00,7.83,72.81,95,100,2.66,1595727566
2847319,DE,Ried,48.48,11.26,62.6,82,72,3.36,1595727567
1608131,TH,Non Thai,15.20,102.04,87.01,83,23,2.24,1595727567
6359114,ES,Sajazarra,42.60,-2.94,57.0,93,20,3.36,1595727567
687656,UA,Zarechnoye,44.86,34.26,65.52,70,0,6.2,1595727567
616629,AM,Hrazdan,40.50,44.77,78.8,44,30,8.05,1595727567
1266240,IN,Kombai,9.83,77.32,75.13,72,91,7.45,1595727567
2028961,MN,Teel,48.05,100.51,59.67,71,55,7.05,1595727567
4333695,US,Montegut,29.47,-90.56,78.8,88,1,3.36,1595727568
293198,IL,Jerusalem District,31.75,35.00,77.0,62,0,1.99,1595727568
616955,AM,Anushavan,40.65,43.98,64.4,72,8,2.24,1595727568
2649670,GB,Farnborough,51.53,-1.37,55.99,100,0,3.36,1595727568
2863126,DE,Niedermeien,52.07,8.96,66.2,77,100,8.05,1595727568
5400890,US,Taft Heights,35.13,-119.47,93.99,27,0,5.01,1595727568
2896918,DE,Hüttenthal,49.62,8.94,72.0,53,100,3.38,1595727568
6360092,ES,Quintanilla de Onsoña,42.48,-4.67,60.01,79,0,1.99,1595727569
1866569,KP,Yŏnan-ŭp,37.91,126.16,80.6,54,36,10.29,1595727569
3668655,CO,Santa Lucía,10.32,-74.96,80.6,88,40,8.05,1595727569
6618143,FR,Saint-Paul-de-Vence,43.70,7.12,73.4,64,10,4.7,1595727569
6957994,CN,Xingdian,32.04,118.44,80.6,78,96,6.71,1595727569
5123173,US,Keeseville,44.51,-73.48,75.99,78,1,6.08,1595727569
3116692,ES,Miranda de Arga,42.48,-1.83,69.8,88,13,7.11,1595727569
2809025,DE,Bad Wildbad,48.75,8.55,72.0,72,100,4.7,1595727570
6446725,FR,Peillon,43.78,7.38,73.4,64,5,4.7,1595727570
2971412,FR,Uchaud,43.76,4.27,71.6,88,51,5.82,1595727570
6613937,FR,Moûtiers,45.48,6.53,57.99,61,100,4.0,1595727570
1812834,CN,Dikou,26.75,118.47,85.8,75,100,3.04,1595727570
2889701,DE,Kleinbodungen,51.47,10.53,66.99,75,100,1.01,1595727570
3105375,ES,Villameitide,43.45,-7.04,63.0,99,44,1.01,1595727570
8010805,PT,Luso,40.37,-8.39,63.0,1,45,1.01,1595727571
3062897,CZ,Vilémov,50.99,14.34,62.01,59,43,6.33,1595727571
6612192,FR,Montbray,48.88,-1.10,60.8,93,90,9.17,1595727571
3050204,HU,Kéthely,46.65,17.39,62.6,93,0,3.36,1595727571
6127681,CA,Rosemère,45.63,-73.80,81.0,47,90,14.99,1595727571
1494463,RU,Polyarnyy,67.45,86.62,56.89,56,0,12.21,1595727571
2309332,GQ,Ebebiyin,2.15,11.34,66.81,98,88,2.19,1595727572
2983130,FR,Rognac,43.49,5.23,73.0,68,1,5.82,1595727572
1806374,CN,Jianghua,32.07,120.01,78.01,81,100,5.06,1595727572
7407776,CN,Yuchi,33.83,106.27,74.91,52,0,1.52,1595727572
6356056,ES,Begues,41.33,1.90,75.99,83,20,4.7,1595727572
5374732,US,Moreno Valley,33.94,-117.23,87.01,35,1,13.87,1595727572
285071,PS,Al Jāniyah,31.94,35.12,77.0,78,0,2.24,1595727572
7260929,US,Bonadelle Ranchos-Madera Ranchos,36.98,-119.87,98.01,25,20,6.93,1595727573
3333164,GB,Leeds,53.80,-1.55,59.0,82,20,12.75,1595727573
5775320,US,Granite,40.57,-111.81,90.0,17,19,1.01,1595727573
7285010,CH,Wahlkreis See-Gaster,47.22,9.02,66.2,72,40,4.63,1595727573
2884380,DE,Kremperheide,53.89,9.48,63.0,89,100,5.99,1595727574
3009793,FR,La Crabouille,44.90,0.57,63.0,93,97,2.95,1595727574
3047669,HU,Nagykáta,47.42,19.74,62.6,88,55,2.24,1595727574
2642005,GB,Muirkirk,55.52,-4.07,55.99,91,60,4.81,1595727575
3026846,FR,Chantenay-Saint-Imbert,46.73,3.18,64.99,77,75,13.87,1595727575
589703,EE,Paikuse,58.38,24.63,51.84,82,0,2.73,1595727575
7007504,CN,Dongcheng,23.71,113.04,89.6,59,75,6.71,1595727575
1795805,CN,Shataping,29.59,110.04,77.72,89,100,1.43,1595727575
3181678,IT,Bosentino,46.00,11.22,57.0,83,100,2.55,1595727575
3102162,PL,Budzyń,52.89,16.99,66.99,64,19,5.99,1595727575
6427110,FR,Cagny,49.15,-0.25,60.8,93,90,9.17,1595727576
6355947,ES,Mengabril,38.92,-5.94,75.0,48,0,5.01,1595727576
5520910,US,Ector,31.87,-102.55,91.4,33,1,16.11,1595727576
4174793,US,Tangerine,28.77,-81.63,82.99,69,20,6.93,1595727576
3142567,NO,Råde,59.35,10.87,66.0,100,90,11.41,1595727576
2946980,DE,Böhlen,51.20,12.38,66.99,70,100,4.0,1595727576
1796339,CN,Shancheng,36.96,107.03,83.17,23,0,20.2,1595727576
3073151,CZ,Kostelec nad Labem,50.23,14.59,64.99,77,68,6.93,1595727577
2741742,PT,Caldas das Taipas,41.48,-8.35,64.99,100,75,2.21,1595727577
3179448,IT,Castelvetere sul Calore,40.93,14.99,73.0,37,0,2.3,1595727577
7060990,CN,Wuli,29.90,110.34,71.13,98,100,2.62,1595727577
2874832,DE,Lutter am Barenberge,51.99,10.27,66.99,64,100,8.86,1595727577
3036122,FR,Ault,50.10,1.45,62.6,88,46,10.29,1595727577
2944800,DE,Breisach,48.03,7.58,70.0,56,100,3.36,1595727577
6537888,IT,Assemini,39.29,9.00,75.99,94,0,5.82,1595727578
2838955,DE,Schlagsdorf,53.73,10.83,63.0,80,100,12.12,1595727578
2673969,SE,Stensta,59.33,14.10,55.99,93,86,3.36,1595727578
763310,PL,Olchowce,49.55,22.23,61.0,92,100,4.0,1595727578
2807100,DE,Woffleben,51.56,10.72,66.99,65,100,4.65,1595727578
789101,MK,Krani,40.94,21.11,59.81,78,0,3.89,1595727578
1730345,PH,Aplaya,14.32,121.12,87.01,70,99,2.24,1595727578
2859460,DE,Oberotterbach,49.07,7.97,72.0,72,100,4.7,1595727579
6431026,FR,Pouldergat,48.05,-4.33,59.0,93,90,6.93,1595727579
3128228,ES,Bercero,41.56,-5.06,64.99,72,0,6.93,1595727579
3025847,FR,Chaussenac,45.18,2.28,55.4,82,100,2.24,1595727579
2520875,ES,Bolaños de Calatrava,38.91,-3.66,79.0,31,0,1.23,1595727579
3021061,FR,Donzère,44.44,4.71,69.01,50,99,0.89,1595727579
547630,RU,Klimenitsy,61.85,35.20,57.2,87,21,4.47,1595727579
259830,GR,Kiato,38.02,22.75,73.0,55,0,1.99,1595727580
2621896,DK,Frejlev,57.01,9.82,62.01,93,100,4.0,1595727580
3301124,IE,Newtown,52.07,-7.64,57.0,82,32,5.99,1595727580
2437798,NE,Zinder,13.81,8.99,84.81,55,28,10.87,1595727580
2837064,DE,Schönau,49.44,8.81,72.0,64,100,8.99,1595727580
3575630,DM,Saint David,15.47,-61.28,78.8,88,40,8.05,1595727580
2934953,DE,Driesch,51.21,6.59,64.99,93,100,3.36,1595727580
6542131,IT,Livigno,46.53,10.13,48.99,100,100,1.12,1595727581
342190,ET,Bichena,10.45,38.20,53.35,93,94,5.1,1595727581
6171515,CA,Tyndall,50.08,-96.66,81.0,70,50,1.01,1595727581
2988956,FR,Ousse,43.28,-0.27,60.8,93,16,2.24,1595727581
829788,UA,Narkevychi,49.52,26.64,61.72,97,100,4.92,1595727581
2899016,DE,Höringen,49.55,7.80,66.2,82,40,3.36,1595727581
3098923,PL,Gmina Gołuchów,51.85,17.93,61.79,69,100,8.93,1595727581
2976830,FR,Saint-Sylvain,49.06,-0.22,60.8,93,90,9.17,1595727582
1798957,CN,Peishe,35.30,111.32,75.92,74,85,4.83,1595727582
4776024,US,Newport News,36.98,-76.43,84.2,88,1,5.82,1595727582
1508260,RU,Novobirilyussy,56.95,90.67,58.14,94,93,5.23,1595727582
590976,EE,Kunda,59.48,26.56,50.18,93,14,5.88,1595727582
2938701,DE,Dautphe,50.85,8.53,63.0,91,100,3.56,1595727583
1919539,CN,Datian,23.86,115.45,91.94,52,80,4.34,1595727583
2736045,PT,Ponte de Vagos,40.47,-8.67,63.0,92,42,7.0,1595727583
1220380,TJ,Tartiki,37.58,68.13,83.39,23,0,3.36,1595727583
6361594,ES,"Puebla de Valverde, La",40.21,-0.95,66.2,82,0,8.05,1595727583
6355528,ES,Alhama de Almería,36.96,-2.57,77.0,73,0,4.7,1595727583
4096107,US,Walker,33.80,-87.30,80.6,88,1,4.68,1595727583
3033792,FR,Belfonds,48.61,0.12,56.64,97,29,7.07,1595727584
2883410,DE,Krumbach,48.24,10.36,62.01,86,99,1.01,1595727584
7064920,CN,Huanggu,28.58,117.98,86.31,73,67,3.91,1595727584
6432309,FR,Mios,44.60,-0.93,66.2,88,97,5.82,1595727584
3166821,IT,Sedrina,45.78,9.62,70.0,82,94,5.82,1595727584
3092988,PL,Lubichowo,53.85,18.40,54.0,100,43,5.08,1595727584
2779710,AT,Feistritz bei Knittelfeld,47.27,14.88,63.0,58,73,3.42,1595727584
1715335,PH,Davila,18.47,120.58,84.2,79,75,5.82,1595727585
6116282,CA,Ramore,48.43,-80.33,74.8,83,100,6.8,1595727585
2891713,DE,Kemel,50.17,8.02,68.0,86,100,4.0,1595727585
2642126,GB,Moulsoe,52.07,-0.67,55.99,99,9,5.01,1595727585
6534836,IT,Cavaglio-Spoccia,46.07,8.63,66.99,77,75,3.69,1595727585
5106825,US,Akron,43.02,-78.50,75.0,82,100,6.4,1595727585
3615391,HN,Agua Fría,13.47,-87.55,77.77,88,87,1.95,1595727585
1686066,PH,Siquijor,9.21,123.52,83.39,69,71,1.77,1595727586
2995675,FR,Marle,49.74,3.77,68.0,72,100,9.17,1595727586
2773913,AT,Klosterneuburg,48.31,16.33,64.99,83,0,1.34,1595727586
1272052,IN,Elūr,10.07,76.28,78.8,88,75,4.45,1595727586
6138260,CA,Saint-Gabriel,46.30,-73.38,79.0,6,95,6.4,1595727586
6957848,BE,Courtil Gras,50.58,3.77,62.6,93,100,9.17,1595727586
2853433,DE,Plankstetten,49.07,11.45,64.4,82,20,4.74,1595727586
4897967,US,Johnsburg,42.38,-88.24,82.0,75,35,3.0,1595727587
5196767,US,Lake City,42.01,-80.35,75.2,64,1,3.36,1595727587
6355797,ES,Salobral,40.61,-4.80,70.0,40,0,1.99,1595727587
3579931,GD,Saint David’s,12.03,-61.67,82.4,83,20,11.41,1595727587
751103,TR,Ondokuzmayıs,41.50,36.07,68.0,82,0,3.36,1595727587
7290672,GB,High Peak District,53.37,-1.84,55.0,93,75,1.99,1595727587
3532779,MX,Aquiles Serdán,17.78,-92.28,89.6,59,40,5.82,1595727588
6357338,ES,"Pontes de García Rodríguez, As",43.48,-7.85,66.0,95,54,1.99,1595727588
240604,CF,Bambari,5.77,20.68,71.08,91,98,2.71,1595727588
6555617,DE,Graben-Neudorf,49.17,8.49,72.0,61,100,6.08,1595727588
3527879,MX,Emiliano Zapata,18.83,-99.18,68.0,60,90,6.93,1595727588
6437772,FR,Ottange,49.43,6.03,64.99,85,100,10.4,1595727588
3009978,FR,La Colle-sur-Loup,43.69,7.10,73.4,64,11,4.7,1595727588
6357458,ES,Huerta de la Obispalía,39.98,-2.48,72.0,67,0,5.99,1595727589
6446224,FR,Villebon-sur-Yvette,48.70,2.25,64.4,88,75,9.17,1595727589
6443864,FR,Solers,48.65,2.72,64.4,88,86,12.75,1595727589
6557405,DE,Pattensen,52.26,9.77,66.99,77,100,4.7,1595727589
3120401,ES,Imón,41.16,-2.73,61.0,66,0,3.0,1595727589
733653,BG,Aprilovo,42.67,23.68,61.0,100,40,4.7,1595727589
6553603,DE,Hoppstädten-Weiersbach,49.62,7.20,64.0,89,100,6.44,1595727589
7297649,GB,Horningsham,51.17,-2.26,57.0,96,52,1.01,1595727590
6435550,FR,Ravenoville,49.47,-1.27,62.01,93,75,10.29,1595727590
2917053,DE,Großalmerode,51.27,9.78,68.0,60,75,2.24,1595727590
3827566,MX,San Pedro Xalpa,19.82,-99.19,68.0,60,90,6.93,1595727590
3108308,ES,Tarazona,41.90,-1.73,73.4,64,0,9.17,1595727378
2837290,DE,Schney,50.16,11.07,63.0,67,100,2.98,1595727590
6553984,DE,Würrich,49.98,7.30,64.0,87,20,9.17,1595727590
7532503,PL,Tarnobrzeg,50.57,21.68,64.99,72,100,3.85,1595727591
710950,UA,Chapayevka,47.47,36.35,63.57,56,81,10.11,1595727591
6416311,RU,Gal’chino,55.28,37.90,57.2,87,100,4.47,1595727591
3109795,ES,Santa María de Huerta,41.27,-2.17,61.0,66,0,3.0,1595727591
2977261,FR,Saint-Quentin-sur-le-Homme,48.65,-1.32,59.0,93,75,5.82,1595727591
3647982,VE,Botijones,8.08,-63.62,78.71,80,100,7.99,1595727591
7285174,CH,Beckenried,46.97,8.47,66.2,68,75,3.36,1595727591
558082,RU,Gukovo,48.05,39.93,69.8,43,71,13.42,1595727591
5695735,US,Gordons Mobile Plaza,41.14,-102.99,78.8,44,75,20.8,1595727592
2761865,AT,Wartmannstetten,47.69,16.08,60.01,81,0,5.99,1595727592
3573665,TT,Speyside,11.30,-60.54,78.8,83,20,4.7,1595727592
685211,RO,Becicherecu Mic,45.83,21.05,70.0,100,100,8.05,1595727592
3220813,DE,Landkreis Passau,48.60,13.29,60.01,85,99,3.0,1595727592
2784199,BE,Waimes,50.41,6.11,59.0,93,100,4.7,1595727592
4916973,US,Wonder Lake,42.39,-88.35,82.0,79,37,7.47,1595727592
513487,RU,Ozerki,57.62,39.88,48.2,100,100,5.46,1595727593
1709719,PH,Kalamangog,6.73,124.07,84.7,67,46,3.6,1595727593
3615090,HN,Arenal,15.35,-86.83,70.54,90,100,1.05,1595727593
7873032,AT,Reinsberg,47.99,15.08,57.99,67,51,5.01,1595727593
1724532,PH,Bobonan,16.13,120.53,87.75,64,87,6.42,1595727593
6548487,DE,Chemnitz,50.84,12.92,57.0,87,100,6.49,1595727593
2921466,DE,Gelsenkirchen,51.52,7.05,64.99,83,100,9.26,1595727593
2885714,DE,Konradsreuth,49.74,12.30,59.0,81,100,3.74,1595727594
7745075,CN,Fuchihkow,29.86,115.44,82.9,80,100,4.74,1595727594
3130825,ES,Aguilar de Bureba,42.59,-3.33,57.2,87,0,10.29,1595727594
8010628,PT,Caminha Municipality,41.85,-8.80,68.0,93,15,4.7,1595727594
4342089,US,South Vacherie,29.93,-90.70,82.4,74,75,5.82,1595727594
1694258,PH,Pawa,11.56,122.82,84.7,70,97,0.56,1595727594
1816373,CN,Bijie,27.31,105.29,66.56,89,100,10.16,1595727359
6425776,FR,Ruoms,44.45,4.35,69.01,57,100,3.0,1595727595
1283368,NP,Gulariyā,28.23,81.33,82.0,84,15,3.11,1595727595
8010738,PT,Mansores,40.94,-8.36,64.99,1,0,1.01,1595727595
4008326,MX,El Presidio,24.52,-104.78,77.0,36,75,9.17,1595727595
2960044,LU,Tarchamps,49.95,5.80,64.0,83,100,9.73,1595727595
170652,SY,Rif-dimashq Governorate,33.50,37.00,60.8,67,0,3.36,1595727595
3648290,VE,Betijoque,9.38,-70.73,71.28,86,95,4.7,1595727595
7300019,GB,Looe,50.35,-4.46,55.99,93,14,5.99,1595727596
7287637,CH,Zillis-Reischen,46.64,9.47,48.99,100,100,1.12,1595727596
3109689,ES,Santa Perpètua de Mogoda,41.53,2.18,78.01,88,1,2.24,1595727596
1816358,CN,Bingfang,32.27,121.29,82.0,74,100,6.42,1595727596
2345521,NG,Damaturu,11.75,11.96,77.94,75,99,10.18,1595727596
2822729,DE,Thieshope,53.32,10.08,66.0,89,100,3.0,1595727596
6535087,IT,Tovo San Giacomo,44.18,8.27,69.8,94,5,4.7,1595727596
3072268,CZ,Lázně Bělohrad,50.43,15.58,63.0,89,0,4.34,1595727597
2509575,ES,Villamartín,36.86,-5.64,78.8,73,0,2.24,1595727597
2984312,FR,Razimet,44.35,0.24,64.0,88,41,4.5,1595727597
5759989,US,West Haven,45.52,-122.77,82.4,32,1,11.41,1595727516
786735,MK,Prilep,41.35,21.55,64.4,88,0,4.7,1595727493
674606,RO,Lopătari,45.48,26.58,57.0,64,94,13.0,1595727597
6356248,ES,Sant Martí de Tous,41.56,1.51,66.0,80,16,1.68,1595727597
3681029,CO,Hatillo de Loba,8.96,-74.08,76.68,93,90,1.3,1595727597
2826403,DE,Storkow,52.25,13.93,63.0,87,52,4.7,1595727598
6443995,FR,Jouy-en-Josas,48.77,2.17,64.4,93,75,8.05,1595727598
3130246,ES,Alkiza,43.17,-2.11,66.2,88,20,3.36,1595727598
6534295,IT,Rocca De' Baldi,44.42,7.76,66.99,93,41,4.7,1595727598
6435443,FR,Herqueville,49.67,-1.88,62.01,93,75,10.29,1595727598
1278921,IN,Amānpur,27.72,78.75,88.12,60,14,8.21,1595727598
6361029,ES,Peñaflor,37.73,-5.36,82.0,47,0,3.36,1595727598
1849633,JP,Tsunagi,32.23,130.45,75.2,94,75,4.7,1595727599
3572640,BS,Clarence Town,23.10,-74.98,83.57,78,100,17.36,1595727599
2510923,ES,Serrejón,39.82,-5.80,80.01,30,0,0.25,1595727599
2736748,PT,Parada de Bouro,41.65,-8.25,63.0,86,0,3.98,1595727599
2869244,DE,Moritzburg,51.16,13.68,66.0,72,98,9.17,1595727599
3194722,HR,Mrkopalj,45.32,14.86,66.2,88,50,2.08,1595727599
7872777,AT,Großkirchheim,46.98,12.89,52.0,97,48,2.42,1595727599
3127259,ES,Cabarceno,43.36,-3.82,70.0,88,90,1.12,1595727600
2926341,DE,Fleck,47.65,11.58,54.0,95,62,4.61,1595727600
662463,RO,Vorona Teodoru,47.55,26.60,64.4,93,100,4.7,1595727600
6356693,ES,Villarcayo de Merindad de Castilla la Vieja,42.94,-3.57,68.0,88,90,1.12,1595727600
6358869,ES,Lles de Cerdanya,42.44,1.67,68.0,47,30,0.45,1595727600
6613998,FR,Saint-Crespin-sur-Moine,47.10,-1.18,64.4,93,90,9.17,1595727601
1271157,IN,Goa,15.33,74.08,75.2,100,90,6.93,1595727601
6091446,CA,Notre-Dame-du-Laus,46.08,-75.62,75.2,64,75,5.46,1595727304
6556937,DE,Solnhofen,48.90,11.00,63.0,82,75,2.24,1595727602
6549382,DE,Angern,52.35,11.73,64.99,92,100,7.78,1595727602
6557303,DE,Betzigau,47.73,10.38,60.01,77,98,4.99,1595727602
2742051,PT,Bougado,41.34,-8.55,64.99,100,75,3.74,1595727602
2988806,FR,Paillet,44.69,-0.36,64.4,88,90,4.7,1595727602
683021,RO,Călăraşi,46.48,23.87,62.6,100,40,1.01,1595727603
4667339,US,White Pine,36.11,-83.29,75.0,83,1,1.28,1595727603
1609071,TH,Loei,17.49,101.73,84.99,88,20,2.24,1595727603
5912226,CA,Burstall,50.65,-109.90,68.45,44,13,14.41,1595727603
253880,GR,Síkinos,36.70,25.12,73.99,68,0,6.93,1595727603
1253500,IN,Azhikkal,11.90,75.37,75.2,94,75,2.24,1595727603
1918986,CN,Louta,29.91,120.12,88.0,78,97,4.47,1595727604
3173405,IT,Minervino di Lecce,40.09,18.42,72.0,100,40,4.7,1595727604
6435452,FR,Hudimesnil,48.87,-1.48,61.0,93,75,5.82,1595727604
7287291,CH,Tentlingen,46.77,7.20,63.0,78,100,1.01,1595727604
2863104,DE,Niedermörsbach,50.72,7.78,61.0,84,100,4.65,1595727604
662036,FI,Ahdenkallio,60.64,24.89,50.0,100,25,2.24,1595727604
2658921,CH,Graben,46.80,7.40,62.01,93,75,2.24,1595727604
2986762,FR,Pleumeleuc,48.18,-1.92,59.0,100,20,3.36,1595727605
4192985,US,Edison,31.56,-84.74,80.6,69,90,4.7,1595727605
6553863,DE,Windhagen,50.63,7.35,63.0,82,100,5.99,1595727605
7932386,DE,Farmsen-Berne,53.61,10.12,64.4,82,100,10.29,1595727605
2653185,GB,Chicksands,52.05,-0.36,55.99,100,20,11.41,1595727605
728477,BG,Ovoshtnik,41.55,25.17,71.01,82,20,3.18,1595727605
2638828,GB,Saint Columb Major,50.43,-4.93,59.0,87,47,14.99,1595727605
7643681,CN,Sanjiao,29.05,115.84,84.54,77,85,3.18,1595727606
2330719,NG,Marte,12.36,13.82,82.92,58,100,9.04,1595727606
5445815,US,Leoville,39.58,-100.46,86.0,45,1,8.05,1595727606
3174644,IT,Locate Varesino,45.69,8.93,66.99,88,90,8.05,1595727606
2820407,DE,Uhingen,48.70,9.59,66.0,68,100,3.76,1595727606
454216,LV,Viesīte,56.35,25.56,47.08,86,9,2.59,1595727606
4144100,US,Pike Creek,39.73,-75.70,80.6,74,1,9.17,1595727606
2523865,IT,Paterno Calabro,39.23,16.26,68.0,94,0,5.82,1595727607
5690418,US,McClusky,47.49,-100.44,75.2,73,75,12.75,1595727607
2524144,IT,Militello Rosmarino,38.05,14.68,75.99,79,0,7.0,1595727607
2962658,IE,Meelick,53.17,-8.09,55.0,91,35,1.01,1595727607
2859359,DE,Oberreichenbach,49.33,10.97,64.4,68,97,6.93,1595727607
3195054,SI,Miren,45.90,13.61,66.2,88,1,4.7,1595727607
7533086,PL,Gmina Kępno,51.29,17.99,62.01,82,98,7.18,1595727607
1957931,PH,Sionogan,6.01,120.95,83.64,69,100,2.62,1595727608
2698242,SE,Kvissleby,62.29,17.38,52.0,100,0,4.7,1595727608
4721703,US,Raymondville,26.48,-97.78,78.01,94,100,33.33,1595727608
2862093,DE,Norderbrarup,54.65,9.78,62.01,100,100,11.41,1595727608
2521435,ES,Azucaica,39.88,-3.97,82.0,35,0,4.7,1595727608
1924740,CN,Dengfang,27.81,116.52,88.61,72,76,5.53,1595727608
6433819,FR,Gaillères,43.93,-0.37,66.2,82,90,3.36,1595727609
1635116,ID,Mojoagung,-7.57,112.35,81.63,57,93,1.21,1595727609
3832779,AR,Villa Concepción del Tío,-31.32,-62.81,46.53,55,0,9.6,1595727609
150037,TZ,Shelui,-4.37,34.20,58.5,62,0,3.56,1595727609
7760114,ID,Tanjungan,-6.82,105.83,80.13,73,47,11.86,1595727609
3461655,BR,Hortolândia,-22.86,-47.22,68.0,49,0,9.17,1595727609
3407940,BR,Alhandra,-7.44,-34.91,73.4,100,75,3.36,1595727609
7302642,AU,Glenmore Park,-33.79,150.67,55.99,95,100,1.99,1595727331
7036707,ID,Bendungan,-7.12,112.50,81.28,62,100,1.34,1595727610
7774452,BR,Sítio José Góis,-23.53,-50.75,64.4,77,100,3.36,1595727610
3837239,AR,San José de la Dormida,-30.35,-63.95,46.06,49,0,6.11,1595727610
2159796,AU,Loccota,-40.22,148.04,54.86,70,95,4.79,1595727610
3471374,BR,Assis,-22.66,-50.41,62.46,68,73,2.06,1595727610
2151449,AU,Rockbank,-37.73,144.67,51.01,87,75,8.05,1595727610
7844864,ID,Puputan,-6.56,106.36,82.0,61,20,5.82,1595727611
2153924,AU,Palm Beach,-33.60,151.32,60.01,100,100,1.01,1595727544
3862771,AR,Departamento de Capayán,-28.83,-66.00,51.69,38,27,7.78,1595727611
3853404,AR,Jujuy Province,-23.00,-66.00,34.18,59,0,3.27,1595727611
3439902,UY,Tarariras,-34.28,-57.62,44.01,79,0,1.01,1595727611
3469294,BR,Bonito,-21.12,-56.48,57.15,67,100,3.96,1595727611
7406667,ID,Klanceng,-8.10,113.75,78.4,56,74,3.85,1595727611
2153888,AU,Palmvale,-28.37,153.48,73.0,77,75,10.29,1595727612
6385651,ID,Gerduren,-7.51,109.09,77.92,67,100,7.76,1595727612
8025880,ID,Jamanis,-7.19,108.18,74.39,70,99,4.47,1595727612
7581723,ID,Pamedilan,-8.37,114.64,79.03,65,83,9.35,1595727612
2166584,AU,Fitzroy,-37.78,144.98,51.01,93,90,4.7,1595727612
7035066,ID,Krajan,-8.21,112.47,77.23,62,48,7.0,1595727612
8025786,ID,Kudang,-7.16,108.15,74.59,69,99,4.54,1595727613
2177990,AU,Alton Downs,-23.30,150.35,71.6,64,0,6.93,1595727613
2163716,AU,Hazelwood,-38.28,146.35,55.0,90,97,5.01,1595727613
6621286,BO,San Juan,-21.22,-65.21,47.12,39,83,0.27,1595727613
7574332,ID,Baobatun,-8.69,122.28,76.24,70,100,5.99,1595727613
1647832,ID,Bulakan,-6.65,106.03,80.4,67,24,2.24,1595727613
3396364,BR,Lavras da Mangabeira,-6.75,-38.96,72.88,69,20,9.1,1595727613
7336948,ID,Kuekobo,-8.72,121.39,79.18,61,61,6.71,1595727614
3455424,BR,Palmeira,-27.58,-50.16,41.94,89,100,3.4,1595727614
7036717,ID,Kebon Tengah,-7.09,112.47,81.07,62,100,1.99,1595727614
1627858,ID,Semboro Lor,-8.19,113.44,79.52,60,70,2.8,1595727614
8052594,ID,Bulakgebang,-7.74,108.41,75.58,77,100,8.61,1595727614
7389832,ID,Ngedhubasa,-8.94,121.06,77.99,70,45,9.55,1595727614
3855140,AR,General Alvear,-31.95,-60.67,51.01,50,0,1.01,1595727615
7037012,ID,Gunungsari,-8.05,112.69,77.88,53,78,1.25,1595727616
7084591,ID,Yatnyaketi,-8.24,114.93,80.6,69,40,13.87,1595727616
1632892,ID,Panawangan,-7.12,108.38,71.29,77,95,4.99,1595727616
931754,MW,Blantyre District,-15.65,34.94,53.73,90,9,3.56,1595727616
1628897,ID,Sampang,-7.56,109.20,78.42,67,100,7.99,1595727616
3457202,BR,Miguel Calmon,-11.43,-40.59,61.68,94,23,5.26,1595727616
933881,BW,Bokaa,-24.45,26.02,43.63,72,0,0.74,1595727617
2061845,AU,Sawyers Valley,-31.90,116.20,63.0,88,20,14.99,1595727617
3472585,BR,Alfredo Wagner,-27.70,-49.33,54.0,93,100,1.01,1595727617
2147324,AU,Tarra Valley,-38.43,146.53,55.0,90,99,5.01,1595727617
2058430,AU,Whyalla,-33.03,137.58,51.8,93,90,1.12,1595727617
2143261,AU,Wollar,-32.35,149.95,53.01,100,90,6.93,1595727617
3460344,BR,Jacobina,-11.18,-40.52,62.42,92,3,5.88,1595727617
2170954,AU,Colo Vale,-34.40,150.48,60.01,94,100,3.0,1595727618
7579543,ID,Ngrawan,-8.03,111.98,78.48,67,94,7.85,1595727618
3467604,BR,Canarana,-11.68,-41.77,61.29,84,0,7.09,1595727618
2075738,AU,Brooker,-34.10,135.90,55.08,77,100,8.57,1595727619
3394605,BR,Monte Alegre,-2.01,-54.07,77.58,70,51,4.05,1595727619
8024054,ID,Rancakukun,-7.34,108.17,75.04,71,99,4.16,1595727619
1054463,MG,Tsiroanomandidy,-18.77,46.03,49.32,74,0,4.25,1595727619
1626231,ID,Central Sulawesi,-0.92,122.35,71.71,88,100,5.17,1595727619
7852546,ID,Tegallega,-7.47,107.56,77.61,63,69,7.25,1595727619
149703,TZ,Sumbawanga,-7.97,31.62,48.09,91,0,5.68,1595727619
8056487,ID,Bulumanis Lor,-6.61,111.07,79.23,62,100,7.94,1595727620
967580,ZA,Orange Farm,-26.48,27.87,39.99,78,0,2.04,1595727620
8069669,ID,Cangkring,-7.51,108.63,77.97,69,100,4.74,1595727620
2068835,AU,Kalbarri,-27.67,114.17,67.96,47,0,12.55,1595727620
7426831,ID,Riipua,-8.71,122.09,77.29,64,88,4.63,1595727620
3441287,UY,Paso de la Cadena,-34.45,-56.17,42.01,75,0,6.93,1595727620
1632495,ID,Panyindangan,-7.57,107.76,79.18,62,63,9.37,1595727620
1634378,ID,Nangtang,-7.35,107.99,72.91,71,98,4.34,1595727621
3466973,BR,Cardeal da Silva,-11.94,-37.95,66.15,91,0,2.68,1595727621
1636364,ID,Mangli,-8.19,113.65,79.88,57,65,3.29,1595727621
3860365,AR,Conesa,-33.59,-60.35,50.0,49,0,1.01,1595727621
7406216,ID,Sruni,-8.30,113.64,79.07,61,65,3.96,1595727621
3455079,BR,Paranã,-12.62,-47.88,71.46,40,0,6.4,1595727621
3699088,PE,Cajamarca,-7.16,-78.50,52.72,79,43,4.29,1595727621
3464618,BR,Dois Córregos,-22.37,-48.38,68.0,56,4,3.0,1595727622
1017115,ZA,Boschrand,-25.42,30.96,48.2,81,0,1.12,1595727622
942470,ZA,Vryheid,-27.77,30.79,42.67,57,0,3.47,1595727622
7036295,ID,Leran,-7.02,111.72,79.05,61,100,7.61,1595727622
2401325,GA,Dakar,-0.70,10.22,70.52,86,90,3.09,1595727622
2157224,AU,Mongarlowe,-35.43,149.93,54.0,97,100,5.99,1595727622
7529246,ID,Karyadharma,-8.70,115.22,80.6,69,40,13.87,1595727622
3855102,AR,Partido de General La Madrid,-37.50,-61.25,44.01,59,100,8.99,1595727623
1642125,ID,Kairatu,-3.35,128.36,84.2,74,40,8.05,1595727623
2066591,AU,Meekatharra,-26.60,118.48,60.8,17,0,8.05,1595727623
3435765,AR,Campo Ramón,-27.46,-55.02,41.65,82,99,1.97,1595727623
8071145,ID,Tegalgunung,-6.96,111.42,78.21,63,100,7.11,1595727623
5881199,AS,Swains Island,-11.06,-171.08,82.49,79,21,24.58,1595727623
2165403,AU,Glenbrook,-33.77,150.62,55.99,98,100,4.29,1595727623
3426466,GS,Grytviken,-54.28,-36.51,19.56,89,16,13.58,1595727624
8046285,ID,Pasirbatang,-7.36,108.36,76.19,71,99,3.85,1595727625
3457454,BR,Matipó,-20.28,-42.34,57.76,86,0,2.59,1595727625
2167390,AU,Empire Vale,-28.92,153.50,61.0,93,90,17.22,1595727625
3865580,AR,Arata,-35.64,-64.36,45.07,52,33,9.4,1595727625
7556572,ID,Delo,-9.59,119.21,77.5,56,91,6.06,1595727625
8074420,ID,Gendiwu,-7.49,108.81,78.48,67,100,6.22,1595727625
2160254,AU,Lidster,-33.28,149.02,50.0,97,100,1.01,1595727625
7579581,ID,Pucung,-8.05,111.97,78.22,68,92,7.87,1595727626
3861666,AR,Charras,-33.02,-64.05,46.4,36,0,10.29,1595727626
1630128,ID,Rancah,-7.20,108.50,74.34,74,96,4.65,1595727626
2167056,AU,Evandale,-41.58,147.23,48.0,70,32,3.38,1595727626
3457991,BR,Mangaratiba,-22.96,-44.04,77.0,78,0,3.0,1595727626
7406483,ID,Kidulsawah,-8.02,113.83,78.35,52,82,3.02,1595727626
8078541,ID,Banjarsari,-6.93,112.10,78.57,67,100,7.54,1595727626
8024029,ID,Gunungangka,-7.34,108.16,75.06,70,99,4.16,1595727627
7389785,ID,Rutojawa,-8.91,121.01,73.65,74,39,8.84,1595727627
8056401,ID,Rowo,-6.55,111.04,79.47,61,100,8.75,1595727627
2146137,AU,Towrang,-34.70,149.85,59.0,100,90,6.93,1595727627
7781566,ID,Panyirapan,-6.23,106.12,82.0,61,20,5.82,1595727627
2155356,AU,Nicholls Rivulet,-43.15,147.18,53.01,67,0,2.57,1595727627
201463,RW,Rwamagana,-1.95,30.43,82.4,34,40,2.24,1595727628
7764308,ID,Cisungsang,-6.80,106.42,79.0,74,57,1.3,1595727628
3838684,AR,Rodeo del Medio,-32.99,-68.68,44.6,56,0,3.36,1595727628
7389704,ID,Laau,-9.86,120.43,76.89,60,68,13.24,1595727628
3450874,BR,Rosário do Catete,-10.70,-37.03,77.0,69,20,10.29,1595727628
1011880,ZA,Da Nova,-34.18,22.13,55.4,87,4,11.41,1595727628
7377150,ID,Gubukjero Timuk,-8.56,116.48,77.0,73,40,5.82,1595727628
963049,ZA,Rayton,-25.74,28.53,39.99,82,0,4.56,1595727629
2174800,AU,Boomahnoomoonah,-36.13,146.10,57.99,71,90,3.36,1595727629
2142494,AU,Yarram,-38.57,146.67,55.99,90,96,5.01,1595727629
3671437,CO,Caucayá,-0.19,-74.78,72.25,97,53,1.5,1595727629
3469140,BR,Botelhos,-21.63,-46.40,57.79,75,0,3.0,1595727629
3454669,BR,Paulo Lopes,-27.96,-48.68,59.0,72,75,4.7,1595727629
7839789,AU,Wingecarribee,-34.49,150.35,60.01,94,100,3.0,1595727629
2162276,AU,Jimboomba,-27.83,153.03,66.99,87,64,1.99,1595727630
2156520,AU,Mount Seymour,-42.40,147.45,48.0,71,0,4.0,1595727630
934091,MU,Rivière du Rempart,-20.10,57.68,70.0,56,75,11.41,1595727630
1014073,ZA,Carletonville,-26.36,27.40,39.99,78,0,1.88,1595727630
7846394,ID,Cimanggu,-7.25,106.67,77.76,68,64,7.83,1595727630
8183572,ID,Broto,-8.02,111.41,78.04,64,89,6.85,1595727630
8053825,ID,Kepel,-7.34,108.49,77.58,70,99,3.87,1595727630
2176833,AU,Barmah,-36.02,144.97,55.99,72,0,5.53,1595727631
3855712,AR,Eusebia,-30.95,-61.86,48.0,54,0,3.0,1595727631
3881895,CL,Los Loros,-27.83,-70.10,56.7,31,3,6.55,1595727631
6690298,RE,Saint-Louis,-21.27,55.42,62.6,63,20,5.82,1595727631
8046765,ID,Kawalimukti,-7.18,108.37,74.71,72,97,4.52,1595727631
8025966,ID,Sukahening,-7.21,108.15,72.45,73,99,4.36,1595727631
2146426,AU,Tomingley,-32.57,148.23,55.99,87,90,4.7,1595727631
2157247,AU,Monash,-34.23,140.57,57.99,55,0,7.0,1595727632
3466708,BR,Castilho,-20.87,-51.49,64.71,73,0,6.73,1595727632
7084547,ID,Tangguwisia,-8.20,114.95,80.6,69,40,13.87,1595727632
2145532,AU,Ulverstone,-41.15,146.17,55.0,52,0,3.0,1595727632
2170013,AU,Crescent Head,-31.20,152.98,60.8,100,90,10.29,1595727632
3464194,BR,Engenheiro Paulo de Frontin,-22.55,-43.68,77.0,69,0,6.93,1595727632
7350551,ID,Karangsari,-8.23,113.26,79.5,62,79,1.57,1595727632
7852335,ID,Batutumpang,-7.44,107.62,76.8,62,67,6.08,1595727632
3461399,BR,Imaruí,-28.34,-48.82,51.85,82,88,2.86,1595727633
2172621,AU,Campania,-42.67,147.42,48.99,66,0,5.82,1595727633
3846080,AR,Los Juríes,-28.47,-62.11,49.15,50,0,10.22,1595727633
2065806,AU,Moorine Rock,-31.30,119.17,60.55,77,22,4.54,1595727633
2145093,AU,Wahring,-36.72,145.22,57.99,46,12,3.33,1595727633
3907106,BO,Pulqui,-19.23,-65.22,48.22,73,100,3.18,1595727633
3656293,EC,Hacienda San Carlos,-0.13,-78.50,57.2,87,75,5.82,1595727633
3469437,BR,Bom Jesus da Lapa,-13.26,-43.42,67.68,55,0,7.25,1595727634
7839363,AU,Glen Innes Severn,-29.63,151.94,53.11,96,98,5.59,1595727634
3455784,BR,Orleans,-28.36,-49.29,49.78,83,100,1.32,1595727634
7839615,AU,Mundaring,-31.88,116.22,62.6,88,20,14.99,1595727634
2067214,AU,Maitland,-34.38,137.67,56.32,74,100,7.52,1595727634
2064995,AU,Nantawarra,-34.02,138.23,57.0,71,42,3.0,1595727634
1061412,MG,Mananara,-16.17,49.77,66.29,83,49,10.25,1595727634
149402,TZ,Tunduma,-9.30,32.77,47.35,100,60,5.53,1595727635
3440645,UY,Departamento de San José,-34.45,-56.62,42.01,75,0,6.93,1595727635
933329,BW,Moijabana,-22.43,26.42,41.81,88,0,5.37,1595727635
7567833,ID,Malata,-9.45,119.38,81.82,50,97,8.14,1595727635
2164102,AU,Hagley,-41.53,146.92,48.0,70,4,3.18,1595727635
7839548,AU,Greater Dandenong,-38.00,145.19,53.01,88,2,1.01,1595727635
3848242,AR,Las Junturas,-31.83,-63.45,44.08,56,0,8.9,1595727636
427701,BI,Cankuzo,-3.22,30.55,57.22,61,25,2.89,1595727636
2147688,AU,Tabbimoble,-29.20,153.27,61.0,100,92,8.05,1595727636
3650095,EC,Yanacocha,-3.98,-79.22,54.28,93,99,4.94,1595727636
996918,ZA,Hennenman,-27.98,27.02,36.34,81,0,2.28,1595727636
6620339,AU,Karratha,-20.74,116.85,72.75,25,99,22.7,1595727636
1636340,ID,Maniis,-7.04,108.31,71.04,76,97,5.91,1595727636
3472378,BR,Amaralina,-13.85,-40.08,64.13,90,26,1.81,1595727637
3457145,BR,Mineiros do Tietê,-22.41,-48.45,68.0,56,8,3.0,1595727375
8046035,ID,Pasirjaya,-7.33,108.27,75.63,71,99,4.07,1595727637
3402528,BR,Catende,-8.67,-35.72,66.16,91,10,4.88,1595727637
8070952,ID,Kadiwono,-6.86,111.43,77.85,64,100,6.91,1595727637
2057273,AU,Yorketown,-35.03,137.60,58.59,67,100,7.05,1595727637
3453245,BR,Pomerode,-26.74,-49.18,53.01,93,100,0.45,1595727419
2147312,AU,Tarro,-32.80,151.67,60.8,100,90,8.05,1595727637
3849557,AR,La Para,-30.89,-63.00,50.07,48,0,10.83,1595727638
3471685,BR,Arceburgo,-21.36,-46.94,61.88,69,0,4.7,1595727638
1648564,ID,Baluburlimbangan,-7.04,107.98,76.53,63,98,4.05,1595727638
7763507,ID,Sukamulya,-6.81,105.89,80.58,71,48,9.93,1595727638
920820,ZM,Chambishi,-12.63,28.05,46.35,91,48,4.45,1595727638
3436751,PY,Valle Apúa,-26.03,-57.22,46.17,70,100,4.65,1595727638
201229,KE,Ahero,-0.17,34.92,60.75,82,0,3.96,1595727638
2160299,AU,Leumeah,-34.05,150.83,57.99,97,100,1.99,1595727639
8075245,ID,Talok,-6.98,111.71,78.96,62,100,8.12,1595727639
7380130,ID,Liabeke,-8.78,121.93,76.71,62,67,5.26,1595727639
2173065,AU,Burrapine,-30.73,152.63,62.01,97,100,1.99,1595727639
2147700,AU,Sylvaterre,-36.12,144.23,57.99,72,1,4.7,1595727639
3465276,BR,Cotiporã,-28.99,-51.70,44.01,78,100,1.77,1595727639
3456225,BR,Freguesia do O,-23.50,-46.70,62.01,87,90,13.87,1595727639
3832132,AR,Zapala,-38.90,-70.05,36.39,80,48,13.73,1595727640
8017208,ID,Lengkongsari,-7.41,108.02,71.73,75,98,4.76,1595727640
3358666,NA,Aranos,-24.13,19.12,48.54,52,0,10.6,1595727640
6690283,RE,Réunion,-21.10,55.60,68.0,52,90,16.11,1595727640
2162994,AU,Howlong,-35.97,146.63,57.99,76,90,9.17,1595727640
2147497,AU,Tamworth,-31.10,150.93,55.4,100,90,6.93,1595727640
3448439,BR,São Paulo,-23.55,-46.64,62.01,87,90,13.87,1595727522
8024177,ID,Margalaksana,-7.34,108.22,75.4,71,99,4.14,1595727641
1639337,ID,Kroya,-7.63,109.25,78.22,69,100,9.51,1595727641
2075133,AU,Callington,-35.12,139.02,61.0,76,7,3.13,1595727641
3398384,BR,Icapuí,-4.71,-37.36,77.52,69,26,16.55,1595727641
3450563,BR,Salto de Pirapora,-23.65,-47.57,69.01,64,14,8.99,1595727369
1641017,ID,Kasiguncu,-1.42,120.66,84.43,57,71,3.11,1595727641
1033356,MZ,Nampula,-15.12,39.27,58.32,92,66,4.0,1595727641
6385680,ID,Klapagading,-7.52,109.07,77.92,68,100,8.14,1595727642
7611486,ID,Wewoloe,-8.53,121.26,83.82,52,81,7.09,1595727642
3836407,AR,Santa Clara,-24.31,-64.66,41.0,75,0,5.82,1595727642
2207730,NZ,Northcote Point,-36.82,174.75,60.01,71,99,7.0,1595727642
3446870,BR,Tapiraí,-23.96,-47.51,56.14,100,87,4.72,1595727642
1636106,ID,Maria,-8.52,118.84,77.09,69,92,8.05,1595727642
3690608,PE,Zorritos,-3.68,-80.68,71.1,76,100,8.84,1595727642
2157654,AU,Millgrove,-37.77,145.65,57.0,89,39,1.9,1595727642
3654536,EC,Machachi,-0.50,-78.57,57.2,87,75,5.82,1595727643
2167767,AU,Edgeroi,-30.10,149.80,55.99,94,100,1.01,1595727643
1637001,ID,Luwuk,-0.95,122.79,74.48,84,100,7.9,1595727643
3402390,BR,Caveira,-7.58,-35.22,75.2,100,75,3.36,1595727643
7839514,AU,Harvey,-33.15,115.93,59.0,79,2,7.87,1595727643
934277,MU,Moka,-20.22,57.50,70.0,56,75,11.41,1595727643
7839774,AU,Sutherland Shire,-34.07,151.08,59.0,100,75,6.93,1595727644
154638,TZ,Matai,-8.30,31.52,48.36,93,13,6.85,1595727644
8073197,ID,Krajankaras,-6.78,111.56,78.96,63,100,7.47,1595727644
2150894,AU,Rowville,-37.93,145.23,51.01,88,2,1.01,1595727638
976897,ZA,Mesa,-26.48,26.98,39.96,71,0,4.0,1595727644
3452830,BR,Pôrto de Pedras,-10.13,-42.43,73.18,59,0,17.94,1595727644
2190358,NZ,Halcombe,-40.15,175.50,57.99,64,0,1.01,1595727644
3664301,BR,Envira,-7.30,-70.22,71.62,94,100,3.0,1595727644
921942,KM,Chindini,-11.92,43.48,74.64,72,55,21.94,1595727645
2144810,AU,Wandandian,-35.10,150.50,59.0,100,90,6.93,1595727645
2157716,AU,Miepoll,-36.62,145.47,57.99,46,43,1.81,1595727645
3392095,BR,Pimenteiras,-6.25,-41.42,72.9,60,87,8.3,1595727645
2146352,AU,Toolamba,-36.50,145.35,57.99,46,30,2.17,1595727645
2168026,AU,Duri,-31.22,150.82,55.4,100,90,6.93,1595727645
7761456,ID,Lebak,-6.64,105.88,80.74,69,22,6.15,1595727645
1624917,ID,Bandar Lampung,-5.43,105.26,81.52,68,41,3.29,1595727646
3460484,BR,Ivoti,-29.59,-51.16,48.0,84,63,3.4,1595727646
2170066,AU,Craven,-32.15,151.93,57.0,96,100,0.72,1595727646
877384,TZ,Tingi,-11.30,35.03,55.67,96,89,5.82,1595727646
2154826,AU,North Wonthaggi,-38.60,145.60,55.99,91,32,8.32,1595727646
3406001,BR,Batalha,-4.03,-42.08,72.01,85,71,2.37,1595727646
8054229,ID,Hantara,-7.06,108.46,74.66,71,91,5.99,1595727646
3840224,AR,Pueblo Buena Parada,-39.02,-64.03,52.74,42,100,18.99,1595727647
3439386,PY,Atyrá,-25.25,-57.17,50.0,71,100,3.36,1595727647
3430104,AR,Paso de los Libres,-29.71,-57.09,44.6,93,0,5.82,1595727647
7037500,ID,Krajan Wetan,-8.09,113.24,79.66,59,76,4.41,1595727647
1647387,ID,Campaka,-7.03,107.13,71.24,68,54,2.24,1595727647
3461830,BR,Guareí,-23.37,-48.18,58.82,89,6,9.48,1595727647
3450594,BR,Salto,-23.20,-47.29,69.01,49,0,9.17,1595727647
2154769,AU,Nugent,-42.70,147.75,48.2,66,0,5.82,1595727648
3856036,AR,Espartillar,-37.36,-62.43,41.97,65,68,6.55,1595727648
2136150,VU,Luganville,-15.53,167.17,80.6,74,75,12.75,1595727648
3453607,BR,Pirajuba,-19.91,-48.70,68.04,45,0,5.03,1595727648
2061751,AU,Sedan,-34.58,139.30,55.99,85,34,3.74,1595727648
7765882,ID,Ciruji Dua,-6.53,105.99,83.08,63,5,1.39,1595727648
7764766,ID,Jambubol,-6.55,105.87,81.54,68,8,5.3,1595727648
7839587,AU,Isaac,-22.24,148.24,76.46,32,47,14.99,1595727648
7377168,ID,Keroak,-8.57,116.50,77.0,73,40,5.82,1595727649
1621678,ID,Wedi,-7.74,110.58,77.16,67,87,3.13,1595727649
3876272,CL,Pichidegua,-34.35,-71.30,48.2,81,76,5.82,1595727649
3875654,CL,Playa Ancha,-33.03,-71.65,53.01,56,95,14.2,1595727649
2167943,AU,East Ballina,-28.87,153.58,61.0,93,90,17.22,1595727649
2076752,AU,Bentley,-32.00,115.92,64.99,88,20,14.99,1595727538
2145267,AU,Vermont,-37.84,145.19,50.0,85,1,1.39,1595727649
2148764,AU,Springbrook,-28.19,153.27,73.0,77,75,10.29,1595727650
8060330,ID,Druju,-6.75,111.13,79.52,62,100,6.64,1595727650
8058265,ID,Krajan Karangwage,-6.64,111.07,79.2,61,100,7.43,1595727650
3442050,UY,Las Toscas,-34.73,-55.72,45.0,75,0,6.93,1595727650
8078008,ID,Kertasari,-7.07,108.83,79.34,62,99,5.91,1595727650
7570046,ID,Jawagae,-8.77,121.24,74.34,67,63,7.72,1595727650
1633122,ID,Palang Utara,-6.90,112.14,78.57,68,100,7.7,1595727650
3862293,AR,Castro Barros,-30.58,-65.73,51.19,40,0,12.71,1595727651
3834502,AR,Termas de Río Hondo,-27.50,-64.86,43.0,63,0,1.99,1595727586
3938819,PE,Huayucachi,-12.13,-75.23,49.26,69,35,3.47,1595727651
2157315,AU,Moina,-41.45,146.12,55.0,52,0,3.0,1595727651
3395122,BR,Matinha,-3.10,-45.03,73.56,72,2,2.13,1595727651
957517,ZA,Sardinia Bay,-34.02,24.50,53.82,93,14,12.44,1595727652
3920736,BO,Chimoré,-16.98,-65.13,61.27,57,100,2.01,1595727379
3451448,BR,Riacho de Santana,-13.61,-42.94,67.42,64,0,11.92,1595727652
1641747,ID,Kambu,-8.39,118.32,81.84,58,95,7.29,1595727652
1636873,ID,Maguan,-8.07,112.54,77.63,56,68,3.58,1595727652
3447720,BR,Serrana,-21.21,-47.60,66.2,59,0,2.91,1595727652
3369090,ZA,Clifton,-33.94,18.38,59.0,82,75,3.0,1595727653
3874552,CL,Putre,-18.20,-69.56,41.2,45,7,3.02,1595727653
8015184,AU,Golden Point,-37.57,143.87,50.0,83,4,3.71,1595727653
7839596,AU,Kulin,-32.77,118.77,59.83,74,32,8.01,1595727653
7781683,ID,Sirnagalih,-6.22,106.04,82.0,61,20,5.82,1595727653
3439433,PY,Departamento del Amambay,-23.00,-56.00,54.12,61,75,3.18,1595727653
6621239,BO,Pocpo,-18.76,-65.37,48.92,71,100,2.48,1595727653
3935206,PE,Matamula,-17.85,-70.55,59.0,82,75,2.24,1595727654
2076371,AU,Blakiston,-35.05,138.88,61.0,76,17,3.83,1595727654
7302640,AU,Toormina,-30.35,153.09,62.01,93,75,16.11,1595727654
8174563,ID,Boncis,-8.26,112.87,72.45,72,70,5.68,1595727654
2142377,AU,Yelgun,-28.48,153.52,69.8,77,75,10.29,1595727654
2169314,AU,Davidson,-33.74,151.20,60.01,99,100,1.01,1595727510
7780957,ID,Pamarayan,-6.36,105.90,81.57,66,41,2.15,1595727654
3461923,BR,Guaraciaba,-20.57,-43.01,62.01,83,0,2.04,1595727654
2146468,AU,Tolmie,-36.93,146.23,55.4,71,90,3.36,1595727655
2144662,AU,Warialda,-29.55,150.57,57.99,84,100,7.0,1595727655
3439214,PY,Capiatá,-25.35,-57.42,50.0,71,100,3.36,1595727655
2134739,VU,Tafea Province,-19.50,169.50,77.0,78,40,6.93,1595727655
1642754,ID,Jaten,-7.58,110.90,78.13,63,92,5.84,1595727655
7039297,ID,Lela,-8.44,118.75,82.56,59,95,7.16,1595727655
1647404,ID,Calingcing Satu,-7.21,108.16,73.17,72,99,4.36,1595727656
3471683,BR,Arcos,-20.28,-45.54,64.11,63,0,4.5,1595727656
2155532,AU,Nerriga,-35.12,150.08,54.0,97,100,4.21,1595727656
2159346,AU,Lyal,-36.95,144.48,57.99,53,0,1.3,1595727656
3944797,PE,Cerro de Pasco,-10.68,-76.27,35.67,97,99,4.41,1595727656
2171625,AU,Childers,-38.30,146.12,55.0,90,59,1.99,1595727657
8023820,ID,Leuwidahu,-7.30,108.21,75.18,71,99,4.16,1595727657
2152055,AU,Ravensbourne,-27.37,152.17,66.2,82,75,9.17,1595727657
2169145,AU,Deer Park,-37.77,144.78,51.01,93,90,4.7,1595727657
933510,BW,Lokwabe,-24.17,21.83,44.96,62,0,8.03,1595727657
8054129,ID,Sakerta Barat,-7.03,108.41,71.19,77,92,6.2,1595727657
7780024,ID,Sukacai,-6.35,105.87,81.63,67,43,2.93,1595727657
877426,TZ,Ruhuwiko,-10.70,35.60,57.11,95,75,5.75,1595727658
8077648,ID,Pongpongan,-6.87,111.95,78.78,67,100,8.86,1595727658
996571,ZA,Highlands,-29.07,26.18,30.2,80,0,3.36,1595727658
1037807,MZ,Miceti,-12.95,40.50,69.8,94,75,6.93,1595727658
1646133,ID,Cisalak,-7.31,108.86,76.93,67,100,4.94,1595727658
877744,TZ,Mtwara,-10.67,39.00,61.75,90,75,3.76,1595727658
3429582,AR,Remedios de Escalada,-34.72,-58.38,52.0,52,0,5.82,1595727658
3695539,PE,Las Monteros,-5.22,-80.62,67.39,70,22,11.95,1595727659
1648446,ID,Bojong,-6.16,106.09,82.0,61,20,5.82,1595727659
3458329,BR,Luziânia,-16.25,-47.95,66.2,59,20,6.93,1595727364
3660434,EC,Azogues,-2.73,-78.83,59.0,77,100,6.93,1595727659
3934608,PE,Moquegua,-17.20,-70.94,54.5,43,0,1.74,1595727659
8021475,ID,Cimanggu,-7.61,108.14,76.19,72,99,7.43,1595727659
2170528,AU,Coonawarra,-37.30,140.82,56.37,59,44,2.73,1595727659
3832903,AR,Videla,-30.94,-60.65,46.53,56,0,7.11,1595727659
3462378,BR,Goianésia,-15.32,-49.12,65.73,49,0,3.91,1595727660
2151682,AU,Rhodes,-33.83,151.08,59.0,100,75,6.93,1595727660
2189146,NZ,Kakanui,-45.18,170.90,53.8,57,92,1.54,1595727660
2163570,AU,Hepburn Springs,-37.32,144.14,50.0,89,0,1.01,1595727429
3466240,BR,Chiba,-24.98,-53.50,45.59,86,100,6.4,1595727660
2143106,AU,Woodenbong,-28.40,152.60,55.99,88,99,4.0,1595727660
1633182,ID,Pakisaji,-8.07,112.60,78.37,55,71,2.77,1595727660
3445792,BR,Umburatiba,-17.26,-40.57,65.37,95,26,5.26,1595727661
3447510,BR,Sítio do Martins,-12.23,-38.75,64.15,96,1,3.58,1595727661
7888859,ID,Wangun,-7.03,107.09,79.0,74,54,2.17,1595727661
3391397,BR,Porto Calvo,-9.04,-35.40,73.4,83,75,6.93,1595727661
1629104,ID,Salem,-7.18,108.81,75.79,68,100,5.32,1595727661
1650535,ID,Bali,-8.50,115.00,80.6,69,40,13.87,1595727661
926087,MW,Mponela,-13.53,33.74,52.95,86,100,7.02,1595727662
2156640,AU,Mount George,-31.90,152.18,63.0,100,75,12.75,1595727662
7764862,ID,Sumurwaru,-6.58,105.81,80.38,71,12,7.56,1595727662
2070698,AU,Gomersal,-34.55,138.88,57.0,72,45,1.99,1595727662
8060993,ID,Pranti,-6.76,111.36,79.2,63,100,7.56,1595727662
3442163,UY,La Barra,-34.37,-53.77,44.92,73,3,11.32,1595727662
2058868,AU,Wattening,-31.33,116.52,62.6,88,90,8.05,1595727662
2175111,AU,Bochara,-37.70,141.93,52.57,69,0,4.0,1595727663
2152037,AU,Rawdon Island,-31.43,152.77,60.8,100,90,10.29,1595727663
1999912,ID,Karangploso,-7.79,110.43,78.12,66,92,2.64,1595727663
8074700,ID,Banjarjo,-6.77,111.73,79.5,63,100,11.7,1595727663
7084634,ID,Dajanpura,-8.22,115.00,80.6,69,40,13.87,1595727663
7753776,ID,Pasirbungur,-6.93,106.38,79.0,74,84,3.74,1595727663
3460967,BR,Itaberá,-23.86,-49.14,60.73,75,67,8.1,1595727663
6621356,AU,Seven Mile Beach,-42.86,147.50,53.01,66,0,5.82,1595727664
3389930,BR,Salgadinho,-7.94,-35.63,66.72,90,2,8.43,1595727664
2169056,AU,Denman,-32.38,150.68,57.99,89,100,3.0,1595727664
7761502,ID,Perumahan Kopi,-6.68,105.96,80.78,68,29,4.34,1595727664
3466752,BR,Cássia,-20.58,-46.92,61.52,63,0,1.25,1595727595
8052551,ID,Sindangsari,-7.81,108.44,76.84,77,100,10.87,1595727664
2239858,AO,Malanje Province,-9.68,16.83,56.19,39,0,2.33,1595727664
2142523,AU,Yarpturk,-38.30,142.43,50.0,94,0,0.56,1595727665
1641320,ID,Karanganyar,-6.71,111.08,79.38,61,100,6.4,1595727665
3901547,BO,Villamontes,-21.25,-63.50,49.41,43,100,2.59,1595727665
3470691,BR,Barra do Piraí,-22.47,-43.83,63.73,77,0,3.6,1595727665
1965408,ID,Ngasem,-8.10,112.56,78.12,57,66,3.91,1595727665
3389609,BR,Santa Inês,-3.67,-45.38,74.57,71,25,2.86,1595727665
7389150,ID,Tawui,-10.14,120.07,81.03,57,63,11.16,1595727665
2164965,AU,Goonengerry,-28.62,153.43,61.0,93,90,17.22,1595727665
2173355,AU,Buln Buln East,-38.08,146.00,55.0,87,72,5.41,1595727666
3457883,BR,Manoel Viana,-29.59,-55.48,45.75,78,0,4.07,1595727666
1648329,ID,Bolang,-6.77,105.99,81.54,67,44,5.44,1595727666
8067895,ID,Beganjing,-6.96,111.30,78.51,62,100,7.96,1595727666
935613,RE,Le Quatorzième,-21.25,55.52,62.6,63,20,5.82,1595727666
2174954,AU,Bonang,-37.20,148.75,46.17,97,100,2.39,1595727666
1638352,ID,Lasem,-6.69,111.45,79.02,63,100,7.16,1595727667
3452640,BR,Porto Seguro,-16.45,-39.06,71.6,94,75,4.7,1595727667
8061008,ID,Sekararum,-6.78,111.26,79.21,64,100,8.66,1595727667
2207762,AU,Lilyfield,-33.88,151.17,59.0,100,75,6.93,1595727667
3692482,PE,San José,-6.74,-79.83,61.86,85,26,9.01,1595727667
7378620,ID,Melo,-8.60,119.96,79.34,56,51,3.83,1595727667
7350549,ID,Gogosan,-8.23,113.25,79.52,62,79,1.54,1595727667
7839757,AU,Narromine,-32.23,147.98,55.4,87,90,4.7,1595727668
884798,ZW,Mvurwi,-17.03,30.85,45.1,92,0,6.53,1595727668
2145129,AU,Waddamana,-42.13,146.75,48.0,71,0,4.0,1595727668
2094342,PG,Kavieng,-2.57,150.80,85.91,72,64,13.8,1595727668
2059372,AU,Waggrakine,-28.72,114.62,57.2,87,0,10.29,1595727668
7839743,AU,Lane Cove,-33.82,151.17,60.01,100,75,6.93,1595727668
7839354,AU,Central Highlands,-42.20,146.64,51.55,46,0,1.95,1595727668
3387926,BR,Senador Pompeu,-5.59,-39.37,73.8,54,88,4.88,1595727669
3954288,PE,Mosoc Cancha,-14.28,-71.07,37.08,77,94,4.43,1595727669
3456322,BR,Nerópolis,-16.41,-49.22,71.6,49,0,6.93,1595727669
